[
    {
      "id": 1,
      "name": "Brick Lane Realty",
      "address":"6907 Twin Lake Dr",
      "bedrooms": 3,
      "bathrooms":3,
      "squareFootage":1352,
      "price":1195,
      "score": 4.3,
      "like": false,
      "photo":"https://media.remax-dev.booj.io/c50d14ae-9c96-3721-8037-2f3ef16b7296/04_PriceReductions.jpg",
      "city":"San Antonio",
      "county":"Bexar County",
      "formattedAddress":"6907 Twin Lake Dr, San Antonio, TX 78244",
      "latitude":29.476909,
      "longitude":-98.35186,
      "state":"TX",
      "zipcode":"78244",
      "publishedDate":"2020-03-14T20:07:24.421Z",
      "distance":0.11261975705692281,
      "daysOld":28.99,
      "correlation":0.9756,
      "propertyType":"Single Family"
    },
    {
      "id": 2,
      "name": "Picket Fence Realty",
      "address":"5519 Roanwood",
      "bedrooms":4,
      "bathrooms":2.5,
      "squareFootage":1589,
      "price":1245,
      "score": 4.1,
      "like": true,
      "photo":"https://i.pinimg.com/originals/eb/22/73/eb2273d6aaac489781a9379b70ef92a2.jpg",
      "city":"San Antonio",
      "county":"Bexar",
      "formattedAddress":"5519 Roanwood, San Antonio, TX 78244",
      "latitude":29.477758,
      "longitude":-98.349994,
      "state":"TX",
      "zipcode":"78244",
      "publishedDate":"2020-01-17T22:52:57.911Z",
      "distance":0.24713764948247732,
      "daysOld":85.87,
      "correlation":0.9654,
      "propertyType":"Single Family"
    },
    {
      "id":3,
      "name": "Carpe Diem Realty",
      "address":"6831 Quail Lake Dr",
      "bedrooms":4,
      "bathrooms":2,
      "squareFootage":1676,
      "price":1221,
      "score": 3.8,
      "like": false,
      "photo":"https://i2.au.reastatic.net/800x600/271dfc12abe34eb2e0ce28ef8e8afbcad98ebf8412f43a669326b3d0638e8702/image.jpg",
      "city":"San Antonio",
      "county":"Bexar County",
      "formattedAddress":"6831 Quail Lake Dr, San Antonio, TX 78244",
      "latitude":29.47375,
      "longitude":-98.351437,
      "state":"TX",
      "zipcode":"78244",
      "publishedDate":"2020-03-04T17:53:32.196Z",
      "distance":0.24529161280407594,
      "daysOld":39.08,
      "correlation":0.9595,
      "propertyType":"Single Family"
    },
    {
      "id":4,
      "name": "Home Realty",
      "address":"6818 Blue Lake Dr",
      "bedrooms":4,
      "bathrooms":3,
      "squareFootage":1755,
      "price":1425,
      "score": 4.6,
      "like": true,
      "photo":"https://www.gfadllc.com/uploads/2/5/5/6/25569381/gfad-real-estate_orig.jpg",
      "city":"San Antonio",
      "county":"Bexar",
      "formattedAddress":"6818 Blue Lake Dr, San Antonio, TX 78244",
      "latitude":29.475762,
      "longitude":-98.354126,
      "state":"TX",
      "zipcode":"78244",
      "publishedDate":"2019-09-01T08:04:18.590Z",
      "distance":0.25739280785976987,
      "daysOld":224.49,
      "correlation":0.9245,
      "propertyType":"Single Family"
    },
    {
      "id":5,
      "name": "Excelsior Real Estate",
      "address":"6831 Blue Lake Dr",
      "bedrooms":5,
      "bathrooms":2,
      "squareFootage":1758,
      "price":1499,
      "score": 4.8,
      "like": true,
      "photo":"https://www.rochfordlawyers.com/wp-content/uploads/2016/03/rochford-2.jpg",
      "city":"San Antonio",
      "county":"Bexar",
      "formattedAddress":"6831 Blue Lake Dr, San Antonio, TX 78244",
      "latitude":29.476166,
      "longitude":-98.353377,
      "state":"TX",
      "zipcode":"78244",
      "publishedDate":"2019-08-14T14:34:03.532Z",
      "distance":0.1854444890136022,
      "daysOld":242.22,
      "correlation":0.8994,
      "propertyType":"Single Family"
    },
    {
      "id": 6,
      "name": "Orchard Properties",
      "address":"5114 Pond Lk",
      "bedrooms":3,
      "bathrooms":2.5,
      "squareFootage":1747,
      "price":1350,
      "score": 4.2,
      "like": false,
      "photo":"https://photos.zillowstatic.com/fp/9d19d4a2c1bf8b371e27581a38f0a3eb-p_e.jpg",
      "city":"San Antonio",
      "county":"Bexar",
      "formattedAddress":"5114 Pond Lk, San Antonio, Texas 78244",
      "latitude":29.471978,
      "longitude":-98.3509,
      "state":"TX",
      "zipcode":"78244",
      "publishedDate":"2019-06-09T23:02:44.288Z",
      "distance":0.45,
      "daysOld":26.74,
      "correlation":0.9793,
      "propertyType":"Single Family"
    },
    {
      "id": 7,
      "name": "Acuta Real Estate",
      "address":"5015 Silent Lk",
      "bedrooms":4,
      "bathrooms":3.5,
      "squareFootage":1759,
      "price":1572,
      "score": 3.9,
      "like": false,
      "photo":"https://i0.wp.com/movingtips.wpengine.com/wp-content/uploads/2020/02/house-suburbs.jpg",
      "city":"San Antonio",
      "county":"Bexar",
      "formattedAddress":"5015 Silent Lake, San Antonio, TX 78244, USA",
      "latitude":29.4720425,
      "longitude":-98.3499812,
      "state":"TX",
      "zipcode":"78244",
      "publishedDate":"2019-03-16T02:15:29.422Z",
      "distance":0.46,
      "daysOld":112.6,
      "correlation":0.9779,
      "propertyType":"Single Family"
    },
    {
      "id": 8,
      "name": "Lark Homes",
      "address":"6819 Oak Lake Dr",
      "bedrooms":3,
      "bathrooms":1.5,
      "squareFootage":1800,
      "price":1680,
      "score": 4.3,
      "like": true,
      "photo":"https://yesirent.com/wp-content/uploads/2020/04/curb-appeal.jpg",
      "city":"San Antonio",
      "county":"Bexar",
      "formattedAddress":"6819 Oak Lake Dr, San Antonio, TX 78244, USA",
      "latitude":29.4740549,
      "longitude":-98.354475,
      "state":"TX",
      "zipcode":"78244",
      "publishedDate":"2019-03-16T02:15:29.422Z",
      "distance":0.36,
      "daysOld":112.6,
      "correlation":0.9768,
      "propertyType":"Single Family"
    },
    {
      "id": 9,
      "name": "Devoe partners",
      "address":"5222 Cabin Lake Dr",
      "bedrooms":5,
      "bathrooms":2.5,
      "squareFootage":1747,
      "price":1794,
      "score": 4.6,
      "like": false,
      "photo":"https://assets.blog.hgtv.ca/wp-content/uploads/2019/03/15161003/curb-appeal-increase-value-house.jpg",
      "city":"San Antonio",
      "county":"Bexar",
      "formattedAddress":"5222 Cabin Lake Dr, San Antonio, Texas 78244",
      "latitude":29.470311,
      "longitude":-98.352375,
      "state":"TX",
      "zipcode":"78244",
      "publishedDate":"2019-04-28T04:45:22.713Z",
      "distance":0.63,
      "daysOld":69.5,
      "correlation":0.9757,
      "propertyType":"Single Family"
    },
    {
      "id": 10,
      "name": "Corsair Real Estate",
      "address":"6707 Calm Lake Dr",
      "bedrooms":6,
      "bathrooms":3.5,
      "squareFootage":1842,
      "price":1989,
      "score": 4.8,
      "like": false,
      "photo":"https://www.installitdirect.com/wp-content/uploads/2019/01/curb-appeal-tips.jpg?x71386",
      "city":"San Antonio",
      "county":"Bexar",
      "formattedAddress":"6707 Calm Lake Dr, San Antonio, TX 78244, USA",
      "latitude":29.472091,
      "longitude":-98.3567219,
      "state":"TX",
      "zipcode":"78244",
      "publishedDate":"2019-03-29T14:55:18.346Z",
      "distance":0.66,
      "daysOld":99.07,
      "correlation":0.9683,
      "propertyType":"Single Family"
    }
  ]
